[
  {
    "nom": "Atelier 2000",
    "latitude": 50.62041,
    "longitude": 3.08755,
    "description": "Agent qui gère l'alimentation du PREC - 03 28 55 60 94",
    "rss": "",
    "contact": "",
    "portail": "0328557549,7623*"
  },
  {
    "nom": "Alleux SP",
    "latitude": 50.90839,
    "longitude": 1.80514,
    "description": "",
    "rss": "A",
    "contact": "",
    "portail": ""
  },
  {
    "nom": "Alleux / SAT1",
    "latitude": 50.9092,
    "longitude": 1.80954,
    "description": "",
    "rss": "A",
    "contact": "",
    "portail": ""
  },
  {
    "nom": "Alleux SP / SAT2",
    "latitude": 50.93033,
    "longitude": 1.84007,
    "description": "",
    "rss": "A",
    "contact": "",
    "portail": ""
  },
  {
    "nom": "Alleux SP / SAT3",
    "latitude": 50.93033,
    "longitude": 1.84007,
    "description": "",
    "rss": "A",
    "contact": "",
    "portail": ""
  },
  {
    "nom": "Armentières SS",
    "latitude": 50.68003,
    "longitude": 2.87623,
    "description": "",
    "rss": "A",
    "contact": "",
    "portail": ""
  },
  {
    "nom": "Arneke SSP",
    "latitude": 50.83125,
    "longitude": 2.40845,
    "description": "Au PK 280.901 de la ligne Hazebrouck-Dunkerque",
    "rss": "",
    "contact": "",
    "portail": ""
  },
  {
    "nom": "Arques P",
    "latitude": 50.74563,
    "longitude": 2.31644,
    "description": "Lignes n°29500 LILLE à LES FONTINETTES au PK 62,755 près du PN n°58",
    "rss": "",
    "contact": "",
    "portail": ""
  },
  {
    "nom": "Audruicq L",
    "latitude": 50.87213,
    "longitude": 2.10028,
    "description": "Au Km 85.166 - Ligne Calais-Hazebrouck",
    "rss": "",
    "contact": "",
    "portail": ""
  },
  {
    "nom": "Baisieux SSP",
    "latitude": 50.61734,
    "longitude": 3.26365,
    "description": "",
    "rss": "",
    "contact": "",
    "portail": ""
  },
  {
    "nom": "Bethune A",
    "latitude": 50.52139,
    "longitude": 2.63612,
    "description": "",
    "rss": "",
    "contact": "Agent E - 0321573172",
    "portail": ""
  },
  {
    "nom": "Bethune SSP",
    "latitude": 50.52467,
    "longitude": 2.63011,
    "description": "Au pk 230.760 de la ligne Hazebrouck-Lens",
    "rss": "",
    "contact": "",
    "portail": ""
  },
  {
    "nom": "Bethune SUD",
    "latitude": 50.52139,
    "longitude": 2.63612,
    "description": "",
    "rss": "",
    "contact": "",
    "portail": ""
  },
  {
    "nom": "Beuvry SP",
    "latitude": 50.53336,
    "longitude": 2.70011,
    "description": "",
    "rss": "",
    "contact": "",
    "portail": ""
  },
  {
    "nom": "Bif coulogne SS",
    "latitude": 50.93497,
    "longitude": 1.85668,
    "description": "",
    "rss": "",
    "contact": "",
    "portail": ""
  },
  {
    "nom": "Bif puyt houck L",
    "latitude": 50.99261,
    "longitude": 2.26338,
    "description": "",
    "rss": "",
    "contact": "",
    "portail": ""
  },
  {
    "nom": "Bollaert SSP",
    "latitude": 50.42889,
    "longitude": 2.82307,
    "description": "Poste au PK 211.700 ligne Bethune vers Bailleul et Lens",
    "rss": "",
    "contact": "",
    "portail": ""
  },
  {
    "nom": "Bourbourg S",
    "latitude": 50.95322,
    "longitude": 2.18403,
    "description": "",
    "rss": "",
    "contact": "",
    "portail": ""
  },
  {
    "nom": "Brearde SP",
    "latitude": 50.75784,
    "longitude": 2.54834,
    "description": "Ligne n°216000 Fretin à Fréthun (LGV) au PK 53,547",
    "rss": "",
    "contact": "",
    "portail": ""
  },
  {
    "nom": "Broxeele P",
    "latitude": 50.80804,
    "longitude": 2.35351,
    "description": "",
    "rss": "",
    "contact": "",
    "portail": ""
  },
  {
    "nom": "Caffiers L",
    "latitude": 50.8497,
    "longitude": 1.81277,
    "description": "",
    "rss": "A",
    "contact": "",
    "portail": ""
  },
  {
    "nom": "Caffiers L SAT1",
    "latitude": 50.85015,
    "longitude": 1.8116,
    "description": "",
    "rss": "A",
    "contact": "",
    "portail": ""
  },
  {
    "nom": "Caffiers L SAT2",
    "latitude": 50.85407,
    "longitude": 1.805,
    "description": "",
    "rss": "A",
    "contact": "",
    "portail": ""
  },
  {
    "nom": "Cassel S",
    "latitude": 50.78073,
    "longitude": 2.47334,
    "description": "",
    "rss": "A",
    "contact": "",
    "portail": ""
  },
  {
    "nom": "Cassel SAT2",
    "latitude": 50.78194,
    "longitude": 2.47147,
    "description": "",
    "rss": "A",
    "contact": "",
    "portail": ""
  },
  {
    "nom": "Coquelles L",
    "latitude": 50.92629,
    "longitude": 1.83412,
    "description": "",
    "rss": "A",
    "contact": "",
    "portail": ""
  },
  {
    "nom": "Coquelles L SAT1",
    "latitude": 50.93019,
    "longitude": 1.8398,
    "description": "",
    "rss": "A",
    "contact": "",
    "portail": ""
  },
  {
    "nom": "Coquelles L SAT2",
    "latitude": 50.93019,
    "longitude": 1.8398,
    "description": "",
    "rss": "A",
    "contact": "",
    "portail": ""
  },
  {
    "nom": "Coquelles L SAT3",
    "latitude": 50.93019,
    "longitude": 1.8398,
    "description": "",
    "rss": "A",
    "contact": "",
    "portail": ""
  },
  {
    "nom": "Coquelles L SAT4",
    "latitude": 50.93019,
    "longitude": 1.8398,
    "description": "",
    "rss": "A",
    "contact": "",
    "portail": ""
  },
  {
    "nom": "Coquelles L SAT5",
    "latitude": 50.92738,
    "longitude": 1.83633,
    "description": "",
    "rss": "A",
    "contact": "",
    "portail": ""
  },
  {
    "nom": "Coudekerque SST",
    "latitude": 50.99517,
    "longitude": 2.39034,
    "description": "",
    "rss": "A",
    "contact": "",
    "portail": ""
  },
  {
    "nom": "Coudekerque SST SAT1",
    "latitude": 51.00247,
    "longitude": 2.38268,
    "description": "",
    "rss": "A",
    "contact": "",
    "portail": ""
  },
  {
    "nom": "Coudekerque SST SAT2",
    "latitude": 51.00549,
    "longitude": 2.37858,
    "description": "",
    "rss": "A",
    "contact": "",
    "portail": ""
  }
]
