[
  {
    "nom": "Alleux SP",
    "latitude": 50.90839,
    "longitude": 1.80514,
    "description": "",
    "rss": "A",
    "contact": "",
    "portail": ""
  },
  {
    "nom": "Alleux SP SAT1",
    "latitude": 50.9092,
    "longitude": 1.80954,
    "description": "",
    "rss": "A",
    "contact": "",
    "portail": ""
  },
  {
    "nom": "Alleux SP SAT2",
    "latitude": 50.93033,
    "longitude": 1.84007,
    "description": "",
    "rss": "A",
    "contact": "",
    "portail": ""
  },
  {
    "nom": "Alleux SP SAT3",
    "latitude": 50.93033,
    "longitude": 1.84007,
    "description": "",
    "rss": "A",
    "contact": "",
    "portail": ""
  },
  {
    "nom": "Armentières SS",
    "latitude": 50.68003,
    "longitude": 2.87623,
    "description": "",
    "rss": "A",
    "contact": "",
    "portail": ""
  },
  {
    "nom": "Arneke SSP",
    "latitude": 50.83125,
    "longitude": 2.40845,
    "description": "Au PK 280.901 de la ligne Hazebrouck-Dunkerque",
    "rss": "",
    "contact": "",
    "portail": ""
  },
  {
    "nom": "Arques P",
    "latitude": 50.74563,
    "longitude": 2.31644,
    "description": "Lignes n°29500 LILLE à LES FONTINETTES au PK 62,755 près du PN n°58",
    "rss": "",
    "contact": "",
    "portail": ""
  },
  {
    "nom": "Atelier 2000",
    "latitude": 50.62041,
    "longitude": 3.08755,
    "description": "",
    "rss": "A",
    "contact": "Agent qui gère l'alimentation du PREC - 03 28 55 60 94",
    "portail": "0328557549,7623*"
  },
  {
    "nom": "Atelier Lens",
    "latitude": 50.40689,
    "longitude": 2.85233,
    "description": "",
    "rss": "",
    "contact": "",
    "portail": ""
  },
  {
    "nom": "Audruicq L",
    "latitude": 50.87213,
    "longitude": 2.10028,
    "description": "Au Km 85.166 - Ligne Calais-Hazebrouck",
    "rss": "",
    "contact": "",
    "portail": ""
  },
  {
    "nom": "Baisieux SSP",
    "latitude": 50.61734,
    "longitude": 3.26365,
    "description": "",
    "rss": "",
    "contact": "",
    "portail": ""
  },
  {
    "nom": "Bethune A",
    "latitude": 50.52139,
    "longitude": 2.63612,
    "description": "",
    "rss": "",
    "contact": "",
    "portail": ""
  },
  {
    "nom": "Bethune SSP",
    "latitude": 50.52467,
    "longitude": 2.63011,
    "description": "Au pk 230.760 de la ligne Hazebrouck-Lens",
    "rss": "",
    "contact": "",
    "portail": ""
  },
  {
    "nom": "Bethune SUD",
    "latitude": 50.52139,
    "longitude": 2.63612,
    "description": "",
    "rss": "",
    "contact": "",
    "portail": ""
  },
  {
    "nom": "Beuvry SP",
    "latitude": 50.53336,
    "longitude": 2.70011,
    "description": "",
    "rss": "",
    "contact": "",
    "portail": ""
  },
  {
    "nom": "Bif coulogne SS",
    "latitude": 50.93497,
    "longitude": 1.85668,
    "description": "",
    "rss": "",
    "contact": "",
    "portail": ""
  },
  {
    "nom": "Bif puyt houck L",
    "latitude": 50.99261,
    "longitude": 2.26338,
    "description": "",
    "rss": "",
    "contact": "",
    "portail": ""
  },
  {
    "nom": "Bollaert SSP",
    "latitude": 50.42889,
    "longitude": 2.82307,
    "description": "Poste au PK 211.700 ligne Bethune vers Bailleul et Lens",
    "rss": "",
    "contact": "",
    "portail": ""
  },
  {
    "nom": "Bourbourg S",
    "latitude": 50.95322,
    "longitude": 2.18403,
    "description": "",
    "rss": "",
    "contact": "",
    "portail": ""
  },
  {
    "nom": "Brearde SP",
    "latitude": 50.75784,
    "longitude": 2.54834,
    "description": "Ligne n°216000 Fretin à Fréthun (LGV) au PK 53,547",
    "rss": "",
    "contact": "",
    "portail": ""
  },
  {
    "nom": "Broxeele P",
    "latitude": 50.80804,
    "longitude": 2.35351,
    "description": "",
    "rss": "",
    "contact": "",
    "portail": ""
  },
  {
    "nom": "Caffiers L",
    "latitude": 50.8497,
    "longitude": 1.81277,
    "description": "",
    "rss": "A",
    "contact": "",
    "portail": ""
  },
  {
    "nom": "Caffiers L SAT1",
    "latitude": 50.85015,
    "longitude": 1.8116,
    "description": "",
    "rss": "A",
    "contact": "",
    "portail": ""
  },
  {
    "nom": "Caffiers L SAT2",
    "latitude": 50.85407,
    "longitude": 1.805,
    "description": "",
    "rss": "A",
    "contact": "",
    "portail": ""
  },
  {
    "nom": "Cassel S",
    "latitude": 50.78073,
    "longitude": 2.47334,
    "description": "",
    "rss": "A",
    "contact": "",
    "portail": ""
  },
  {
    "nom": "Cassel SAT2",
    "latitude": 50.78194,
    "longitude": 2.47147,
    "description": "",
    "rss": "A",
    "contact": "",
    "portail": ""
  },
  {
    "nom": "Coquelles L",
    "latitude": 50.92629,
    "longitude": 1.83412,
    "description": "",
    "rss": "A",
    "contact": "",
    "portail": ""
  },
  {
    "nom": "Coquelles L SAT1",
    "latitude": 50.93019,
    "longitude": 1.8398,
    "description": "",
    "rss": "A",
    "contact": "",
    "portail": ""
  },
  {
    "nom": "Coquelles L SAT2",
    "latitude": 50.93019,
    "longitude": 1.8398,
    "description": "",
    "rss": "A",
    "contact": "",
    "portail": ""
  },
  {
    "nom": "Coquelles L SAT3",
    "latitude": 50.93019,
    "longitude": 1.8398,
    "description": "",
    "rss": "A",
    "contact": "",
    "portail": ""
  },
  {
    "nom": "Coquelles L SAT4",
    "latitude": 50.93019,
    "longitude": 1.8398,
    "description": "",
    "rss": "A",
    "contact": "",
    "portail": ""
  },
  {
    "nom": "Coquelles L SAT5",
    "latitude": 50.92738,
    "longitude": 1.83633,
    "description": "",
    "rss": "A",
    "contact": "",
    "portail": ""
  },
  {
    "nom": "Coudekerque SST",
    "latitude": 50.99517,
    "longitude": 2.39034,
    "description": "",
    "rss": "A",
    "contact": "",
    "portail": ""
  },
  {
    "nom": "Coudekerque SST SAT1",
    "latitude": 51.00247,
    "longitude": 2.38268,
    "description": "",
    "rss": "A",
    "contact": "",
    "portail": ""
  },
  {
    "nom": "Coudekerque SST SAT2",
    "latitude": 51.00549,
    "longitude": 2.37858,
    "description": "",
    "rss": "A",
    "contact": "",
    "portail": ""
  },
  {
    "nom": "Coulogne SP",
    "latitude": 50.93494,
    "longitude": 1.85672,
    "description": "",
    "rss": "A",
    "contact": "",
    "portail": ""
  },
  {
    "nom": "Coulogne SP  SM1-SM2",
    "latitude": 50.9333,
    "longitude": 1.86056,
    "description": "",
    "rss": "A",
    "contact": "",
    "portail": ""
  },
  {
    "nom": "Coulogne SP SAT1",
    "latitude": 50.93228,
    "longitude": 1.86179,
    "description": "",
    "rss": "A",
    "contact": "",
    "portail": ""
  },
  {
    "nom": "Coulogne SP SAT2",
    "latitude": 50.93525,
    "longitude": 1.85033,
    "description": "",
    "rss": "A",
    "contact": "",
    "portail": ""
  },
  {
    "nom": "Coulogne SP SAT3",
    "latitude": 50.93525,
    "longitude": 1.85033,
    "description": "",
    "rss": "A",
    "contact": "",
    "portail": ""
  },
  {
    "nom": "Coulogne SP SAT4",
    "latitude": 50.93557,
    "longitude": 1.85462,
    "description": "",
    "rss": "A",
    "contact": "",
    "portail": ""
  },
  {
    "nom": "Curie SSP",
    "latitude": 50.94073,
    "longitude": 1.85027,
    "description": "",
    "rss": "A",
    "contact": "",
    "portail": ""
  },
  {
    "nom": "Curie SSP SAT1",
    "latitude": 50.94156,
    "longitude": 1.84856,
    "description": "",
    "rss": "A",
    "contact": "",
    "portail": ""
  },
  {
    "nom": "Curie SSP SAT2",
    "latitude": 50.94091,
    "longitude": 1.85015,
    "description": "",
    "rss": "A",
    "contact": "",
    "portail": ""
  },
  {
    "nom": "Curie SSP SAT3",
    "latitude": 50.94242,
    "longitude": 1.84725,
    "description": "",
    "rss": "A",
    "contact": "",
    "portail": ""
  },
  {
    "nom": "Curie SSP SAT4",
    "latitude": 50.94565,
    "longitude": 1.84089,
    "description": "",
    "rss": "A",
    "contact": "",
    "portail": ""
  },
  {
    "nom": "Dannes SSP",
    "latitude": 50.5793,
    "longitude": 1.61447,
    "description": "",
    "rss": "A",
    "contact": "",
    "portail": ""
  },
  {
    "nom": "Délivrance SST",
    "latitude": 50.62733,
    "longitude": 2.99147,
    "description": "",
    "rss": "A",
    "contact": "",
    "portail": ""
  },
  {
    "nom": "Don Sainghin SS",
    "latitude": 50.55251,
    "longitude": 2.91516,
    "description": "",
    "rss": "A",
    "contact": "",
    "portail": ""
  },
  {
    "nom": "Don Sainghin SS SAT1",
    "latitude": 50.54891,
    "longitude": 2.90745,
    "description": "",
    "rss": "A",
    "contact": "",
    "portail": ""
  },
  {
    "nom": "Don Sainghin SS SAT2",
    "latitude": 50.54747,
    "longitude": 2.90489,
    "description": "",
    "rss": "A",
    "contact": "",
    "portail": ""
  },
  {
    "nom": "Don Sainghin SS SAT3",
    "latitude": 50.55251,
    "longitude": 2.91516,
    "description": "",
    "rss": "A",
    "contact": "",
    "portail": ""
  },
  {
    "nom": "Dunkerque SSPA",
    "latitude": 51.02866,
    "longitude": 2.36969,
    "description": "",
    "rss": "A",
    "contact": "",
    "portail": ""
  },
  {
    "nom": "Erquinghem PRCI",
    "latitude": 50.67218,
    "longitude": 2.82697,
    "description": "",
    "rss": "A",
    "contact": "",
    "portail": ""
  },
  {
    "nom": "Esquelbecq SS",
    "latitude": 50.88953,
    "longitude": 2.41255,
    "description": "Au PK 287.404 de la ligne Hazebrouck-Dunkerque",
    "rss": "",
    "contact": "",
    "portail": ""
  },
  {
    "nom": "Etaples SSP",
    "latitude": 50.52022,
    "longitude": 1.6357,
    "description": "",
    "rss": "",
    "contact": "",
    "portail": ""
  },
  {
    "nom": "Etaples SSP SAT1",
    "latitude": 50.51284,
    "longitude": 1.64414,
    "description": "",
    "rss": "",
    "contact": "",
    "portail": ""
  },
  {
    "nom": "Etaples SSP SAT2",
    "latitude": 50.51287,
    "longitude": 1.64414,
    "description": "",
    "rss": "",
    "contact": "",
    "portail": ""
  },
  {
    "nom": "Etinchelle SST",
    "latitude": 50.3262,
    "longitude": 2.90511,
    "description": "",
    "rss": "",
    "contact": "",
    "portail": ""
  },
  {
    "nom": "Fives SSPA",
    "latitude": 50.61622,
    "longitude": 3.09132,
    "description": "",
    "rss": "",
    "contact": "",
    "portail": ""
  },
  {
    "nom": "Fives SSPA S5064-358",
    "latitude": 50.63236,
    "longitude": 3.08348,
    "description": "Accès par le PRCI 41",
    "rss": "",
    "contact": "",
    "portail": "4141"
  },
  {
    "nom": "Fives SSPA SAT1",
    "latitude": 50.61633,
    "longitude": 3.09134,
    "description": "",
    "rss": "",
    "contact": "",
    "portail": ""
  },
  {
    "nom": "Fives SSPA SAT2",
    "latitude": 50.62382,
    "longitude": 3.08866,
    "description": "",
    "rss": "",
    "contact": "",
    "portail": ""
  },
  {
    "nom": "Fives SSPA SAT3",
    "latitude": 50.62409,
    "longitude": 3.08835,
    "description": "",
    "rss": "",
    "contact": "",
    "portail": ""
  },
  {
    "nom": "Fives SSPA SAT4",
    "latitude": 50.62222,
    "longitude": 3.1131,
    "description": "Clé spécifique pour ouvrir la guérite du SAT4",
    "rss": "",
    "contact": "",
    "portail": ""
  },
  {
    "nom": "Fives SSPA SAT5 (accès 1)",
    "latitude": 50.60647,
    "longitude": 3.1061,
    "description": "Accès face au Hellu",
    "rss": "",
    "contact": "",
    "portail": ""
  },
  {
    "nom": "Fives SSPA SAT5 (accès 2)",
    "latitude": 50.61659,
    "longitude": 3.09418,
    "description": "Accès possible selon la végétation par Garo Lille",
    "rss": "",
    "contact": "",
    "portail": ""
  },
  {
    "nom": "Fives SSPA SAT6",
    "latitude": 50.62579,
    "longitude": 3.08532,
    "description": "",
    "rss": "",
    "contact": "",
    "portail": ""
  },
  {
    "nom": "Flamengrie SST",
    "latitude": 50.64574,
    "longitude": 2.89574,
    "description": "",
    "rss": "",
    "contact": "",
    "portail": ""
  },
  {
    "nom": "Grande Synthe IA2",
    "latitude": 51.0021,
    "longitude": 2.31167,
    "description": "Le DU se trouve au Poste 7",
    "rss": "",
    "contact": "Agent E de Dunkerque 8 au 0328248177",
    "portail": ""
  },
  {
    "nom": "Graveline L",
    "latitude": 50.97897,
    "longitude": 2.12322,
    "description": "",
    "rss": "",
    "contact": "",
    "portail": ""
  },
  {
    "nom": "Graveline L SAT1",
    "latitude": 50.97813,
    "longitude": 2.13007,
    "description": "",
    "rss": "",
    "contact": "",
    "portail": ""
  },
  {
    "nom": "Graveline L SAT2",
    "latitude": 50.97889,
    "longitude": 2.12036,
    "description": "",
    "rss": "",
    "contact": "",
    "portail": ""
  },
  {
    "nom": "Graveline L SAT3",
    "latitude": 50.97753,
    "longitude": 2.10604,
    "description": "",
    "rss": "",
    "contact": "",
    "portail": ""
  },
  {
    "nom": "Guines SP",
    "latitude": 50.85405,
    "longitude": 1.84803,
    "description": "",
    "rss": "",
    "contact": "",
    "portail": ""
  },
  {
    "nom": "Haute-Loge",
    "latitude": 50.73001,
    "longitude": 2.50458,
    "description": "",
    "rss": "",
    "contact": "",
    "portail": ""
  },
  {
    "nom": "Hauteville SSP",
    "latitude": 50.72107,
    "longitude": 1.6131,
    "description": "",
    "rss": "",
    "contact": "",
    "portail": ""
  },
  {
    "nom": "Hauteville SSP SAT1",
    "latitude": 50.70574,
    "longitude": 1.60412,
    "description": "",
    "rss": "",
    "contact": "",
    "portail": ""
  },
  {
    "nom": "Hauteville SSP SAT2",
    "latitude": 50.71684,
    "longitude": 1.61336,
    "description": "",
    "rss": "",
    "contact": "",
    "portail": "5962"
  },
  {
    "nom": "Hauteville SSP SAT3",
    "latitude": 50.71684,
    "longitude": 1.61336,
    "description": "",
    "rss": "",
    "contact": "",
    "portail": "5962"
  },
  {
    "nom": "Hazebrouck SSPA",
    "latitude": 50.72454,
    "longitude": 2.54311,
    "description": "",
    "rss": "",
    "contact": "",
    "portail": ""
  },
  {
    "nom": "Hellu SP",
    "latitude": 50.60639,
    "longitude": 3.10628,
    "description": "",
    "rss": "",
    "contact": "",
    "portail": ""
  },
  {
    "nom": "Hondeghem PRCI I604 I605",
    "latitude": 50.76564,
    "longitude": 2.51397,
    "description": "",
    "rss": "",
    "contact": "",
    "portail": ""
  },
  {
    "nom": "Hondeghem PRCI I608",
    "latitude": 50.77567,
    "longitude": 2.47886,
    "description": "",
    "rss": "",
    "contact": "",
    "portail": ""
  },
  {
    "nom": "Hondeghem PRCI I611",
    "latitude": 50.77045,
    "longitude": 2.49625,
    "description": "",
    "rss": "",
    "contact": "",
    "portail": ""
  },
  {
    "nom": "Hondeghem PRCI TT609",
    "latitude": 50.76564,
    "longitude": 2.51397,
    "description": "",
    "rss": "",
    "contact": "",
    "portail": ""
  },
  {
    "nom": "Justice SSP",
    "latitude": 50.61123,
    "longitude": 3.08054,
    "description": "",
    "rss": "",
    "contact": "",
    "portail": ""
  },
  {
    "nom": "Justice SSP SAT1",
    "latitude": 50.61598,
    "longitude": 3.06237,
    "description": "",
    "rss": "",
    "contact": "",
    "portail": ""
  },
  {
    "nom": "Justice SSP SAT2",
    "latitude": "",
    "longitude": "",
    "description": "",
    "rss": "",
    "contact": "",
    "portail": ""
  },
  {
    "nom": "Justice SSP SAT3",
    "latitude": 50.61598,
    "longitude": 3.06237,
    "description": "",
    "rss": "",
    "contact": "",
    "portail": ""
  },
  {
    "nom": "La madeleine L",
    "latitude": 50.6605,
    "longitude": 3.07221,
    "description": "Poste au PK 5.805 de la ligne Lambersart-Lion d'or",
    "rss": "",
    "contact": "",
    "portail": ""
  },
  {
    "nom": "La madeleine L SAT1",
    "latitude": 50.66066,
    "longitude": 3.08042,
    "description": "",
    "rss": "",
    "contact": "",
    "portail": ""
  },
  {
    "nom": "La madeleine L SAT2",
    "latitude": 50.6605,
    "longitude": 3.07221,
    "description": "",
    "rss": "",
    "contact": "",
    "portail": ""
  },
  {
    "nom": "La Tortue SSP",
    "latitude": 50.59951,
    "longitude": 2.97589,
    "description": "au PK 11,940   Ligne Lille Sud vers Delivrance et Loison. Pour manoeuvrer certains interrupteurs de la tortue il faut fermer des sectionneurs à Justice SAT2.",
    "rss": "",
    "contact": "",
    "portail": ""
  },
  {
    "nom": "Lambersart LGV",
    "latitude": 50.65947,
    "longitude": 3.02394,
    "description": "",
    "rss": "",
    "contact": "",
    "portail": "4242#"
  },
  {
    "nom": "Lambersart PRCI I549 ",
    "latitude": 50.65367,
    "longitude": 3.04592,
    "description": "",
    "rss": "",
    "contact": "",
    "portail": ""
  },
  {
    "nom": "Lambersart PRCI I553",
    "latitude": 50.662,
    "longitude": 3.01636,
    "description": "Appareil au PK 16.932 du Tunnel vers Paris",
    "rss": "",
    "contact": "",
    "portail": ""
  },
  {
    "nom": "Lambersart SSP",
    "latitude": 50.65947,
    "longitude": 3.02394,
    "description": "",
    "rss": "",
    "contact": "",
    "portail": "4242#"
  },
  {
    "nom": "Lambersart SSP SAT1",
    "latitude": 50.65793,
    "longitude": 3.0293,
    "description": "",
    "rss": "",
    "contact": "",
    "portail": ""
  },
  {
    "nom": "Lambersart SSP SAT2",
    "latitude": 50.662,
    "longitude": 3.0139,
    "description": "",
    "rss": "",
    "contact": "",
    "portail": ""
  },
  {
    "nom": "Leet P",
    "latitude": 50.70592,
    "longitude": 2.71988,
    "description": "au PK 39.986 de la ligne Lille-Calais",
    "rss": "",
    "contact": "",
    "portail": ""
  },
  {
    "nom": "Lens A",
    "latitude": 50.42474,
    "longitude": 2.83377,
    "description": "",
    "rss": "",
    "contact": "Agent E :  03 21 79 73 54",
    "portail": "2025"
  },
  {
    "nom": "Lens SSPA",
    "latitude": 50.41635,
    "longitude": 2.84638,
    "description": "",
    "rss": "",
    "contact": "",
    "portail": ""
  },
  {
    "nom": "Lesquin SP (accès 1)",
    "latitude": 50.59582,
    "longitude": 3.11391,
    "description": "Accès au PN",
    "rss": "",
    "contact": "",
    "portail": ""
  },
  {
    "nom": "Lesquin SP (accès 2)",
    "latitude": 50.59874,
    "longitude": 3.10879,
    "description": "Accès par la ferme",
    "rss": "",
    "contact": "",
    "portail": ""
  },
  {
    "nom": "Lesquin SP I18 I14",
    "latitude": 50.59369,
    "longitude": 3.11539,
    "description": "",
    "rss": "",
    "contact": "",
    "portail": ""
  },
  {
    "nom": "Lesquin SP SAT1",
    "latitude": 50.59102,
    "longitude": 3.11775,
    "description": "",
    "rss": "",
    "contact": "",
    "portail": ""
  },
  {
    "nom": "Lille Gare SSPA",
    "latitude": 50.63468,
    "longitude": 3.07861,
    "description": "",
    "rss": "",
    "contact": "",
    "portail": ""
  },
  {
    "nom": "Lille Gare SSPA S5082",
    "latitude": 50.63313,
    "longitude": 3.07963,
    "description": "",
    "rss": "",
    "contact": "",
    "portail": ""
  },
  {
    "nom": "Lillers SSP",
    "latitude": 50.56165,
    "longitude": 2.47912,
    "description": "",
    "rss": "",
    "contact": "",
    "portail": ""
  },
  {
    "nom": "Lion d’or F IL3",
    "latitude": 50.65531,
    "longitude": 3.10686,
    "description": "",
    "rss": "",
    "contact": "",
    "portail": ""
  },
  {
    "nom": "Lion d'or SAT1",
    "latitude": 50.65531,
    "longitude": 3.10686,
    "description": "",
    "rss": "",
    "contact": "",
    "portail": ""
  },
  {
    "nom": "Lion d'or SAT2",
    "latitude": 50.65451,
    "longitude": 3.09628,
    "description": "",
    "rss": "",
    "contact": "",
    "portail": ""
  },
  {
    "nom": "Lion d'or SSP",
    "latitude": 50.64478,
    "longitude": 3.09414,
    "description": "",
    "rss": "",
    "contact": "",
    "portail": ""
  },
  {
    "nom": "Loison",
    "latitude": 50.452,
    "longitude": 2.86134,
    "description": "",
    "rss": "",
    "contact": "",
    "portail": ""
  },
  {
    "nom": "Lomme SP",
    "latitude": 50.65298,
    "longitude": 3.02056,
    "description": "",
    "rss": "",
    "contact": "",
    "portail": ""
  },
  {
    "nom": "Lomme SP SAT1",
    "latitude": 50.65453,
    "longitude": 3.02365,
    "description": "PK 18.6 - Ligne Lille - Armentieres vers Delivrance",
    "rss": "",
    "contact": "",
    "portail": ""
  },
  {
    "nom": "Marquise SSP",
    "latitude": 50.80576,
    "longitude": 1.72958,
    "description": "",
    "rss": "",
    "contact": "",
    "portail": ""
  },
  {
    "nom": "Marquise SSP SAT1",
    "latitude": 50.8058,
    "longitude": 1.73025,
    "description": "",
    "rss": "",
    "contact": "",
    "portail": ""
  },
  {
    "nom": "Marquise SSP SAT2",
    "latitude": 50.8058,
    "longitude": 1.73025,
    "description": "",
    "rss": "",
    "contact": "",
    "portail": ""
  },
  {
    "nom": "Moulin S",
    "latitude": 50.89642,
    "longitude": 1.81608,
    "description": "Accès n°F243 voie 2 au PK 112.009 ; Paris / Londres",
    "rss": "",
    "contact": "",
    "portail": ""
  },
  {
    "nom": "Moulin S / SAT5",
    "latitude": 50.89973,
    "longitude": 1.81316,
    "description": "",
    "rss": "",
    "contact": "",
    "portail": ""
  },
  {
    "nom": "Moulin S / SAT5",
    "latitude": 50.90004,
    "longitude": 1.80945,
    "description": "",
    "rss": "",
    "contact": "",
    "portail": ""
  },
  {
    "nom": "Moulin S SAT 2 (accès V2)",
    "latitude": 50.88853,
    "longitude": 1.81944,
    "description": "Accès TGV n°F239 au PK 111.118 / Voie 2 / Accès aux appareils par TVP",
    "rss": "",
    "contact": "",
    "portail": ""
  },
  {
    "nom": "Moulin S SAT1",
    "latitude": 50.89113,
    "longitude": 1.81385,
    "description": "Pour aller aux appareils I7209/I7210/I7211",
    "rss": "",
    "contact": "",
    "portail": ""
  },
  {
    "nom": "Moulin S SAT2 (accès V1)",
    "latitude": 50.88275,
    "longitude": 1.82057,
    "description": "LGV coté voie 1",
    "rss": "",
    "contact": "",
    "portail": ""
  },
  {
    "nom": "Moulin S SAT3 (accès V1)",
    "latitude": 50.89384,
    "longitude": 1.81625,
    "description": "Accès n°F241 Voie 1 au PK 111.710",
    "rss": "",
    "contact": "",
    "portail": ""
  },
  {
    "nom": "Moulin S SAT4 (accès V2)",
    "latitude": 50.87884,
    "longitude": 1.82354,
    "description": "",
    "rss": "",
    "contact": "",
    "portail": ""
  },
  {
    "nom": "Nortkerque P",
    "latitude": 50.88074,
    "longitude": 2.04122,
    "description": "",
    "rss": "",
    "contact": "",
    "portail": ""
  },
  {
    "nom": "Pays Blanc P",
    "latitude": 50.90834,
    "longitude": 1.80524,
    "description": "",
    "rss": "",
    "contact": "",
    "portail": ""
  },
  {
    "nom": "Pays Blanc P SAT1",
    "latitude": 50.90237,
    "longitude": 1.81054,
    "description": "",
    "rss": "",
    "contact": "",
    "portail": ""
  },
  {
    "nom": "Pays Blanc P SAT2",
    "latitude": 50.90695,
    "longitude": 1.80842,
    "description": "",
    "rss": "",
    "contact": "",
    "portail": ""
  },
  {
    "nom": "Pays Blanc P SAT3",
    "latitude": 50.90913,
    "longitude": 1.81026,
    "description": "ATTENTION à la hauteur des véhicules. (Le crafter ne passe pas)",
    "rss": "",
    "contact": "",
    "portail": ""
  },
  {
    "nom": "PE3 Bif Coupvent A",
    "latitude": 50.96917,
    "longitude": 2.21841,
    "description": "",
    "rss": "",
    "contact": "",
    "portail": ""
  },
  {
    "nom": "PE4 Pondéreux",
    "latitude": 50.99329,
    "longitude": 2.28,
    "description": "",
    "rss": "",
    "contact": "",
    "portail": ""
  },
  {
    "nom": "PE5 Mardyck (accès 1)",
    "latitude": 50.9925,
    "longitude": 2.26167,
    "description": "",
    "rss": "",
    "contact": "",
    "portail": ""
  },
  {
    "nom": "PE5 Mardyck (accès 2)",
    "latitude": 50.99837,
    "longitude": 2.25687,
    "description": "",
    "rss": "",
    "contact": "",
    "portail": ""
  },
  {
    "nom": "Pont de briques sST",
    "latitude": 50.68196,
    "longitude": 1.62704,
    "description": "",
    "rss": "",
    "contact": "",
    "portail": ""
  },
  {
    "nom": "Puyt Houck SSPA",
    "latitude": 50.99328,
    "longitude": 2.27973,
    "description": "",
    "rss": "",
    "contact": "",
    "portail": ""
  },
  {
    "nom": "Quilleval PRCI",
    "latitude": 50.84418,
    "longitude": 2.19101,
    "description": "",
    "rss": "",
    "contact": "",
    "portail": ""
  },
  {
    "nom": "Quilleval PRCI I625",
    "latitude": 50.8432,
    "longitude": 2.18123,
    "description": "",
    "rss": "",
    "contact": "",
    "portail": ""
  },
  {
    "nom": "Rang SSP",
    "latitude": 50.41705,
    "longitude": 1.64755,
    "description": "",
    "rss": "",
    "contact": "",
    "portail": ""
  },
  {
    "nom": "Riviere SSPA",
    "latitude": 50.93394,
    "longitude": 1.84943,
    "description": "",
    "rss": "",
    "contact": "",
    "portail": ""
  },
  {
    "nom": "Riviere SSPA SAT1",
    "latitude": 50.932,
    "longitude": 1.84372,
    "description": "",
    "rss": "",
    "contact": "",
    "portail": ""
  },
  {
    "nom": "Riviere SSPA TT 7371",
    "latitude": 50.93204,
    "longitude": 1.84359,
    "description": "",
    "rss": "",
    "contact": "",
    "portail": ""
  },
  {
    "nom": "Rodelinghem PRCI I628 ",
    "latitude": 50.82622,
    "longitude": 1.93076,
    "description": "TVP présent pour aller jusqu'au PRCI",
    "rss": "",
    "contact": "",
    "portail": ""
  },
  {
    "nom": "Rodelinghem PRCI I629",
    "latitude": 50.82388,
    "longitude": 1.93818,
    "description": "",
    "rss": "",
    "contact": "",
    "portail": ""
  },
  {
    "nom": "Rodelinghem PRCI I631",
    "latitude": 50.82646,
    "longitude": 1.9214,
    "description": "",
    "rss": "",
    "contact": "",
    "portail": ""
  },
  {
    "nom": "Ronchin P",
    "latitude": 50.61104,
    "longitude": 3.0877,
    "description": "",
    "rss": "",
    "contact": "",
    "portail": ""
  },
  {
    "nom": "Ronchin P SAT1",
    "latitude": 50.61603,
    "longitude": 3.09126,
    "description": "Accès par Garo Lille",
    "rss": "",
    "contact": "",
    "portail": ""
  },
  {
    "nom": "Roubaix L",
    "latitude": 50.71052,
    "longitude": 3.16269,
    "description": "",
    "rss": "",
    "contact": "",
    "portail": ""
  },
  {
    "nom": "Rue verte L ",
    "latitude": 50.93004,
    "longitude": 1.83949,
    "description": "",
    "rss": "A",
    "contact": "",
    "portail": ""
  },
  {
    "nom": "Ruminghem SST",
    "latitude": 50.84462,
    "longitude": 2.19582,
    "description": "",
    "rss": "A",
    "contact": "",
    "portail": ""
  }
]
